[
  {
    "type": "city",
    "unCode": "ATH",
    "tpCode": "ANG",
    "name": "Ang Thong",
    "Country": "THA",
    "provinceISOCode": "ATG",
    "provinceName": "Ang Thong",
    "": "",
    "latitude": 14.5882714,
    "longitude": 100.4517799,
    "zoomLevel": 12,
    "phoneCode": 35,
    "timeZoneCode": "ICT",
    "timeOffset": 7,
    "description": "",
    "isEXODestination": "true",
    "tpServer": ""
  },
  {
    "type": "city",
    "unCode": "ARA",
    "tpCode": "ARA",
    "name": "Aranyaprathet",
    "Country": "THA",
    "provinceISOCode": "SKW",
    "provinceName": "Sa Kaeo",
    "": "",
    "latitude": 13.6877732,
    "longitude": 102.5037221,
    "zoomLevel": 12,
    "phoneCode": 37,
    "timeZoneCode": "ICT",
    "timeOffset": 7,
    "description": "",
    "isEXODestination": "true",
    "tpServer": ""
  },
  {
    "type": "city",
    "unCode": "AYU",
    "tpCode": "AYU",
    "name": "Ayutthaya",
    "Country": "THA",
    "provinceISOCode": "AYA",
    "provinceName": "Phra Nakhon Si Ayutthaya",
    "": "",
    "latitude": 14.3339354,
    "longitude": 100.6087763,
    "zoomLevel": 12,
    "phoneCode": 35,
    "timeZoneCode": "ICT",
    "timeOffset": 7,
    "description": "",
    "isEXODestination": "true",
    "tpServer": ""
  },
  {
    "type": "city",
    "unCode": "BKK",
    "tpCode": "BKK",
    "name": "Bangkok",
    "Country": "THA",
    "provinceISOCode": "BKK",
    "provinceName": "Bangkok",
    "": "",
    "latitude": 13.7262228,
    "longitude": 100.5115567,
    "zoomLevel": 12,
    "phoneCode": 2,
    "timeZoneCode": "ICT",
    "timeOffset": 7,
    "description": "",
    "isEXODestination": "true",
    "tpServer": ""
  },
  {
    "type": "city",
    "unCode": "BFV",
    "tpCode": "BFV",
    "name": "Buri Ram",
    "Country": "THA",
    "provinceISOCode": "BRM",
    "provinceName": "Buri Ram",
    "": "",
    "latitude": 14.9979656,
    "longitude": 103.087799,
    "zoomLevel": 12,
    "phoneCode": 44,
    "timeZoneCode": "ICT",
    "timeOffset": 7,
    "description": "",
    "isEXODestination": "true",
    "tpServer": ""
  },
  {
    "type": "city",
    "unCode": "",
    "tpCode": "CHM",
    "name": "Cha-am",
    "Country": "THA",
    "provinceISOCode": "PBI",
    "provinceName": "Phetchaburi",
    "": "",
    "latitude": 12.799722,
    "longitude": 99.966944,
    "zoomLevel": 12,
    "phoneCode": 32,
    "timeZoneCode": "ICT",
    "timeOffset": 7,
    "description": "",
    "isEXODestination": "true",
    "tpServer": ""
  },
  {
    "type": "city",
    "unCode": "CSD",
    "tpCode": "CCS",
    "name": "Chachoengsao",
    "Country": "THA",
    "provinceISOCode": "CCO",
    "provinceName": "Chachoengsao",
    "": "",
    "latitude": 13.6845937,
    "longitude": 101.0640063,
    "zoomLevel": 12,
    "phoneCode": 38,
    "timeZoneCode": "ICT",
    "timeOffset": 7,
    "description": "",
    "isEXODestination": "true",
    "tpServer": ""
  },
  {
    "type": "city",
    "unCode": "CYM",
    "tpCode": "CHP",
    "name": "Chaiyaphum",
    "Country": "THA",
    "provinceISOCode": "CPM",
    "provinceName": "Chaiyaphum",
    "": "",
    "latitude": 15.8078511,
    "longitude": 102.0311517,
    "zoomLevel": 12,
    "phoneCode": 55,
    "timeZoneCode": "ICT",
    "timeOffset": 7,
    "description": "",
    "isEXODestination": "true",
    "tpServer": ""
  },
  {
    "type": "city",
    "unCode": "CHA",
    "tpCode": "CHT",
    "name": "Chanthaburi",
    "Country": "THA",
    "provinceISOCode": "CTI",
    "provinceName": "Chanthaburi",
    "": "",
    "latitude": 12.6104079,
    "longitude": 102.1006586,
    "zoomLevel": 12,
    "phoneCode": 39,
    "timeZoneCode": "ICT",
    "timeOffset": 7,
    "description": "",
    "isEXODestination": "true",
    "tpServer": ""
  },
  {
    "type": "city",
    "unCode": "CNX",
    "tpCode": "CNX",
    "name": "Chiang Mai",
    "Country": "THA",
    "provinceISOCode": "CMI",
    "provinceName": "Chiang Mai",
    "": "",
    "latitude": 18.8395523,
    "longitude": 98.9692671,
    "zoomLevel": 12,
    "phoneCode": 53,
    "timeZoneCode": "ICT",
    "timeOffset": 7,
    "description": "",
    "isEXODestination": "true",
    "tpServer": ""
  },
  {
    "type": "city",
    "unCode": "CEI",
    "tpCode": "CEI",
    "name": "Chiang Rai",
    "Country": "THA",
    "provinceISOCode": "CRI",
    "provinceName": "Chiang Rai",
    "": "",
    "latitude": 19.9316594,
    "longitude": 99.8089312,
    "zoomLevel": 12,
    "phoneCode": 54,
    "timeZoneCode": "ICT",
    "timeOffset": 7,
    "description": "",
    "isEXODestination": "true",
    "tpServer": ""
  },
  {
    "type": "city",
    "unCode": "CHB",
    "tpCode": "CHB",
    "name": "Chonburi",
    "Country": "THA",
    "provinceISOCode": "CBI",
    "provinceName": "Chonburi",
    "": "",
    "latitude": 13.3619271,
    "longitude": 100.9812614,
    "zoomLevel": 12,
    "phoneCode": 38,
    "timeZoneCode": "ICT",
    "timeOffset": 7,
    "description": "",
    "isEXODestination": "true",
    "tpServer": ""
  },
  {
    "type": "city",
    "unCode": "CHU",
    "tpCode": "CHU",
    "name": "Chumphon",
    "Country": "THA",
    "provinceISOCode": "CPN",
    "provinceName": "Chumphon",
    "": "",
    "latitude": 10.5213446,
    "longitude": 99.1900906,
    "zoomLevel": 12,
    "phoneCode": 77,
    "timeZoneCode": "ICT",
    "timeOffset": 7,
    "description": "",
    "isEXODestination": "true",
    "tpServer": ""
  },
  {
    "type": "city",
    "unCode": "HDY",
    "tpCode": "HDY",
    "name": "Hat Yai",
    "Country": "THA",
    "provinceISOCode": "SKA",
    "provinceName": "Songkhla",
    "": "",
    "latitude": 6.9776646,
    "longitude": 100.4424659,
    "zoomLevel": 12,
    "phoneCode": 74,
    "timeZoneCode": "ICT",
    "timeOffset": 7,
    "description": "",
    "isEXODestination": "true",
    "tpServer": ""
  },
  {
    "type": "city",
    "unCode": "HHQ",
    "tpCode": "HHQ",
    "name": "Hua Hin",
    "Country": "THA",
    "provinceISOCode": "PBI",
    "provinceName": "Phetchaburi",
    "": "",
    "latitude": 12.5691445,
    "longitude": 99.9567498,
    "zoomLevel": 12,
    "phoneCode": 32,
    "timeZoneCode": "ICT",
    "timeOffset": 7,
    "description": "",
    "isEXODestination": "true",
    "tpServer": ""
  },
  {
    "type": "city",
    "unCode": "KLN",
    "tpCode": "KSN",
    "name": "Kalasin",
    "Country": "THA",
    "provinceISOCode": "KSN",
    "provinceName": "Kalasin",
    "": "",
    "latitude": 16.4328157,
    "longitude": 103.5045683,
    "zoomLevel": 12,
    "phoneCode": 43,
    "timeZoneCode": "ICT",
    "timeOffset": 7,
    "description": "",
    "isEXODestination": "true",
    "tpServer": ""
  },
  {
    "type": "city",
    "unCode": "KPT",
    "tpCode": "KAM",
    "name": "Kamphaeng Phet",
    "Country": "THA",
    "provinceISOCode": "KPT",
    "provinceName": "Kamphaeng Phet",
    "": "",
    "latitude": 16.5209954,
    "longitude": 99.4990149,
    "zoomLevel": 12,
    "phoneCode": 55,
    "timeZoneCode": "ICT",
    "timeOffset": 7,
    "description": "",
    "isEXODestination": "true",
    "tpServer": ""
  },
  {
    "type": "city",
    "unCode": "KCB",
    "tpCode": "KAN",
    "name": "Kanchanaburi",
    "Country": "THA",
    "provinceISOCode": "KRI",
    "provinceName": "Kanchanaburi",
    "": "",
    "latitude": 14.0224945,
    "longitude": 99.5348512,
    "zoomLevel": 12,
    "phoneCode": 34,
    "timeZoneCode": "ICT",
    "timeOffset": 7,
    "description": "",
    "isEXODestination": "true",
    "tpServer": ""
  },
  {
    "type": "city",
    "unCode": "",
    "tpCode": "KLK",
    "name": "Khao Lak",
    "Country": "THA",
    "provinceISOCode": "PNA",
    "provinceName": "Phang Nga",
    "": "",
    "latitude": 8.6739012,
    "longitude": 98.2347369,
    "zoomLevel": 12,
    "phoneCode": 76,
    "timeZoneCode": "ICT",
    "timeOffset": 7,
    "description": "",
    "isEXODestination": "true",
    "tpServer": ""
  },
  {
    "type": "city",
    "unCode": "",
    "tpCode": "KSK",
    "name": "Khao Sok",
    "Country": "THA",
    "provinceISOCode": "SNI",
    "provinceName": "Surat Thani",
    "": "",
    "latitude": 8.9115587,
    "longitude": 98.5248136,
    "zoomLevel": 12,
    "phoneCode": 77,
    "timeZoneCode": "ICT",
    "timeOffset": 7,
    "description": "",
    "isEXODestination": "true",
    "tpServer": ""
  },
  {
    "type": "city",
    "unCode": "",
    "tpCode": "KHY",
    "name": "Khao Yai",
    "Country": "THA",
    "provinceISOCode": "NYK",
    "provinceName": "Nakhon Nayok",
    "": "",
    "latitude": 14.4205666,
    "longitude": 101.3855496,
    "zoomLevel": 12,
    "phoneCode": 37,
    "timeZoneCode": "ICT",
    "timeOffset": 7,
    "description": "",
    "isEXODestination": "true",
    "tpServer": ""
  },
  {
    "type": "city",
    "unCode": "KKC",
    "tpCode": "KKC",
    "name": "Khon Kaen",
    "Country": "THA",
    "provinceISOCode": "KKN",
    "provinceName": "Khon Kaen",
    "": "",
    "latitude": 16.4427013,
    "longitude": 102.8334602,
    "zoomLevel": 12,
    "phoneCode": 43,
    "timeZoneCode": "ICT",
    "timeOffset": 7,
    "description": "",
    "isEXODestination": "true",
    "tpServer": ""
  },
  {
    "type": "city",
    "unCode": "",
    "tpCode": "CHA",
    "name": "Koh Chang",
    "Country": "THA",
    "provinceISOCode": "TRT",
    "provinceName": "Trat",
    "": "",
    "latitude": 12.0544418,
    "longitude": 102.2079416,
    "zoomLevel": 12,
    "phoneCode": 39,
    "timeZoneCode": "ICT",
    "timeOffset": 7,
    "description": "",
    "isEXODestination": "true",
    "tpServer": ""
  },
  {
    "type": "city",
    "unCode": "",
    "tpCode": "KJU",
    "name": "Koh Jum",
    "Country": "THA",
    "provinceISOCode": "KBI",
    "provinceName": "Krabi",
    "": "",
    "latitude": 7.8083801,
    "longitude": 98.9584691,
    "zoomLevel": 12,
    "phoneCode": 75,
    "timeZoneCode": "ICT",
    "timeOffset": 7,
    "description": "",
    "isEXODestination": "true",
    "tpServer": ""
  },
  {
    "type": "city",
    "unCode": "",
    "tpCode": "KKD",
    "name": "Koh Kradan",
    "Country": "THA",
    "provinceISOCode": "KBI",
    "provinceName": "Krabi",
    "": "",
    "latitude": 7.3770783,
    "longitude": 99.2451253,
    "zoomLevel": 12,
    "phoneCode": 75,
    "timeZoneCode": "ICT",
    "timeOffset": 7,
    "description": "",
    "isEXODestination": "true",
    "tpServer": ""
  },
  {
    "type": "city",
    "unCode": "",
    "tpCode": "KKO",
    "name": "Koh Kut",
    "Country": "THA",
    "provinceISOCode": "TRT",
    "provinceName": "Trat",
    "": "",
    "latitude": 11.6590816,
    "longitude": 102.5456442,
    "zoomLevel": 12,
    "phoneCode": 39,
    "timeZoneCode": "ICT",
    "timeOffset": 7,
    "description": "",
    "isEXODestination": "true",
    "tpServer": ""
  },
  {
    "type": "city",
    "unCode": "KLA",
    "tpCode": "LAN",
    "name": "Koh Lanta",
    "Country": "THA",
    "provinceISOCode": "KBI",
    "provinceName": "Krabi",
    "": "",
    "latitude": 7.6299512,
    "longitude": 99.031247,
    "zoomLevel": 12,
    "phoneCode": 75,
    "timeZoneCode": "ICT",
    "timeOffset": 7,
    "description": "",
    "isEXODestination": "true",
    "tpServer": ""
  },
  {
    "type": "city",
    "unCode": "",
    "tpCode": "LIB",
    "name": "Koh Libong",
    "Country": "THA",
    "provinceISOCode": "TRG",
    "provinceName": "Trang",
    "": "",
    "latitude": 7.2383367,
    "longitude": 99.3392088,
    "zoomLevel": 12,
    "phoneCode": 75,
    "timeZoneCode": "ICT",
    "timeOffset": 7,
    "description": "",
    "isEXODestination": "true",
    "tpServer": ""
  },
  {
    "type": "city",
    "unCode": "",
    "tpCode": "KLP",
    "name": "Koh Lipe",
    "Country": "THA",
    "provinceISOCode": "STN",
    "provinceName": "Satun",
    "": "",
    "latitude": 6.4877044,
    "longitude": 99.2799415,
    "zoomLevel": 12,
    "phoneCode": 74,
    "timeZoneCode": "ICT",
    "timeOffset": 7,
    "description": "",
    "isEXODestination": "true",
    "tpServer": ""
  },
  {
    "type": "city",
    "unCode": "",
    "tpCode": "KMA",
    "name": "Koh Mak",
    "Country": "THA",
    "provinceISOCode": "TRT",
    "provinceName": "Trat",
    "": "",
    "latitude": 11.812832,
    "longitude": 102.451626,
    "zoomLevel": 12,
    "phoneCode": 39,
    "timeZoneCode": "ICT",
    "timeOffset": 7,
    "description": "",
    "isEXODestination": "true",
    "tpServer": ""
  },
  {
    "type": "city",
    "unCode": "",
    "tpCode": "KMK",
    "name": "Koh Mook",
    "Country": "THA",
    "provinceISOCode": "TRG",
    "provinceName": "Trang",
    "": "",
    "latitude": 7.3222024,
    "longitude": 99.286888,
    "zoomLevel": 12,
    "phoneCode": 75,
    "timeZoneCode": "ICT",
    "timeOffset": 7,
    "description": "",
    "isEXODestination": "true",
    "tpServer": ""
  },
  {
    "type": "city",
    "unCode": "",
    "tpCode": "KNG",
    "name": "Koh Ngai",
    "Country": "THA",
    "provinceISOCode": "TRG",
    "provinceName": "Trang",
    "": "",
    "latitude": 7.4168425,
    "longitude": 99.1981174,
    "zoomLevel": 12,
    "phoneCode": 75,
    "timeZoneCode": "ICT",
    "timeOffset": 7,
    "description": "",
    "isEXODestination": "true",
    "tpServer": ""
  },
  {
    "type": "city",
    "unCode": "",
    "tpCode": "PHA",
    "name": "Koh Phangan",
    "Country": "THA",
    "provinceISOCode": "SNI",
    "provinceName": "Surat Thani",
    "": "",
    "latitude": 9.7349625,
    "longitude": 99.951166,
    "zoomLevel": 12,
    "phoneCode": 77,
    "timeZoneCode": "ICT",
    "timeOffset": 7,
    "description": "",
    "isEXODestination": "true",
    "tpServer": ""
  },
  {
    "type": "city",
    "unCode": "",
    "tpCode": "PPI",
    "name": "Koh Phi Phi",
    "Country": "THA",
    "provinceISOCode": "KBI",
    "provinceName": "Krabi",
    "": "",
    "latitude": 7.7526517,
    "longitude": 98.7565936,
    "zoomLevel": 12,
    "phoneCode": 75,
    "timeZoneCode": "ICT",
    "timeOffset": 7,
    "description": "",
    "isEXODestination": "true",
    "tpServer": ""
  },
  {
    "type": "city",
    "unCode": "",
    "tpCode": "SAM",
    "name": "Koh Samed",
    "Country": "THA",
    "provinceISOCode": "RYG",
    "provinceName": "Rayong",
    "": "",
    "latitude": 12.552339,
    "longitude": 101.4385076,
    "zoomLevel": 12,
    "phoneCode": 38,
    "timeZoneCode": "ICT",
    "timeOffset": 7,
    "description": "",
    "isEXODestination": "true",
    "tpServer": ""
  },
  {
    "type": "city",
    "unCode": "KSM",
    "tpCode": "USM",
    "name": "Koh Samui",
    "Country": "THA",
    "provinceISOCode": "SNI",
    "provinceName": "Surat Thani",
    "": "",
    "latitude": 9.50108,
    "longitude": 99.9313735,
    "zoomLevel": 12,
    "phoneCode": 77,
    "timeZoneCode": "ICT",
    "timeOffset": 7,
    "description": "",
    "isEXODestination": "true",
    "tpServer": ""
  },
  {
    "type": "city",
    "unCode": "",
    "tpCode": "TAO",
    "name": "Koh Tao",
    "Country": "THA",
    "provinceISOCode": "SNI",
    "provinceName": "Surat Thani",
    "": "",
    "latitude": 10.0922781,
    "longitude": 99.8178947,
    "zoomLevel": 12,
    "phoneCode": 77,
    "timeZoneCode": "ICT",
    "timeOffset": 7,
    "description": "",
    "isEXODestination": "true",
    "tpServer": ""
  },
  {
    "type": "city",
    "unCode": "",
    "tpCode": "KYN",
    "name": "Koh Yao Noi",
    "Country": "THA",
    "provinceISOCode": "PNA",
    "provinceName": "Phang Nga",
    "": "",
    "latitude": 8.1006725,
    "longitude": 98.5761379,
    "zoomLevel": 12,
    "phoneCode": 76,
    "timeZoneCode": "ICT",
    "timeOffset": 7,
    "description": "",
    "isEXODestination": "true",
    "tpServer": ""
  },
  {
    "type": "city",
    "unCode": "",
    "tpCode": "KYY",
    "name": "Koh Yao Yai",
    "Country": "THA",
    "provinceISOCode": "PNA",
    "provinceName": "Phang Nga",
    "": "",
    "latitude": 8.1006725,
    "longitude": 98.5761379,
    "zoomLevel": 12,
    "phoneCode": 76,
    "timeZoneCode": "ICT",
    "timeOffset": 7,
    "description": "",
    "isEXODestination": "true",
    "tpServer": ""
  },
  {
    "type": "city",
    "unCode": "",
    "tpCode": "NKR",
    "name": "Korat",
    "Country": "THA",
    "provinceISOCode": "NMA",
    "provinceName": "Nakhon Ratchasima",
    "": "",
    "latitude": 14.9708314,
    "longitude": 102.072177,
    "zoomLevel": 12,
    "phoneCode": 44,
    "timeZoneCode": "ICT",
    "timeOffset": 7,
    "description": "",
    "isEXODestination": "true",
    "tpServer": ""
  },
  {
    "type": "city",
    "unCode": "KBV",
    "tpCode": "KBV",
    "name": "Krabi",
    "Country": "THA",
    "provinceISOCode": "KBI",
    "provinceName": "Krabi",
    "": "",
    "latitude": 8.058966,
    "longitude": 98.9150383,
    "zoomLevel": 12,
    "phoneCode": 75,
    "timeZoneCode": "ICT",
    "timeOffset": 7,
    "description": "",
    "isEXODestination": "true",
    "tpServer": ""
  },
  {
    "type": "city",
    "unCode": "LPT",
    "tpCode": "LPT",
    "name": "Lampang",
    "Country": "THA",
    "provinceISOCode": "LPG",
    "provinceName": "Lampang",
    "": "",
    "latitude": 18.2579216,
    "longitude": 99.5423258,
    "zoomLevel": 12,
    "phoneCode": 54,
    "timeZoneCode": "ICT",
    "timeOffset": 7,
    "description": "",
    "isEXODestination": "true",
    "tpServer": ""
  },
  {
    "type": "city",
    "unCode": "LPN",
    "tpCode": "LPN",
    "name": "Lamphun",
    "Country": "THA",
    "provinceISOCode": "LPN",
    "provinceName": "Lamphun",
    "": "",
    "latitude": 18.5791762,
    "longitude": 99.0042759,
    "zoomLevel": 12,
    "phoneCode": 53,
    "timeZoneCode": "ICT",
    "timeOffset": 7,
    "description": "",
    "isEXODestination": "true",
    "tpServer": ""
  },
  {
    "type": "city",
    "unCode": "LOE",
    "tpCode": "LOE",
    "name": "Loei",
    "Country": "THA",
    "provinceISOCode": "LEI",
    "provinceName": "Loei",
    "": "",
    "latitude": 17.4931934,
    "longitude": 101.6994811,
    "zoomLevel": 12,
    "phoneCode": 42,
    "timeZoneCode": "ICT",
    "timeOffset": 7,
    "description": "",
    "isEXODestination": "true",
    "tpServer": ""
  },
  {
    "type": "city",
    "unCode": "",
    "tpCode": "LOP",
    "name": "Lopburi",
    "Country": "THA",
    "provinceISOCode": "LRI",
    "provinceName": "Lopburi",
    "": "",
    "latitude": 14.8007852,
    "longitude": 100.6023483,
    "zoomLevel": 12,
    "phoneCode": 36,
    "timeZoneCode": "ICT",
    "timeOffset": 7,
    "description": "",
    "isEXODestination": "true",
    "tpServer": ""
  },
  {
    "type": "city",
    "unCode": "HGN",
    "tpCode": "HGN",
    "name": "Mae Hong Son",
    "Country": "THA",
    "provinceISOCode": "MSN",
    "provinceName": "Mae Hong Son",
    "": "",
    "latitude": 18.7231028,
    "longitude": 97.4346762,
    "zoomLevel": 12,
    "phoneCode": 53,
    "timeZoneCode": "ICT",
    "timeOffset": 7,
    "description": "",
    "isEXODestination": "true",
    "tpServer": ""
  },
  {
    "type": "city",
    "unCode": "MAQ",
    "tpCode": "MSO",
    "name": "Mae Sot",
    "Country": "THA",
    "provinceISOCode": "TAK",
    "provinceName": "Tak",
    "": "",
    "latitude": 16.7158763,
    "longitude": 98.539219,
    "zoomLevel": 12,
    "phoneCode": 55,
    "timeZoneCode": "ICT",
    "timeOffset": 7,
    "description": "",
    "isEXODestination": "true",
    "tpServer": ""
  },
  {
    "type": "city",
    "unCode": "MDH",
    "tpCode": "MDH",
    "name": "Mukdahan",
    "Country": "THA",
    "provinceISOCode": "MDH",
    "provinceName": "Mukdahan",
    "": "",
    "latitude": 16.5457154,
    "longitude": 104.7238129,
    "zoomLevel": 12,
    "phoneCode": 42,
    "timeZoneCode": "ICT",
    "timeOffset": 7,
    "description": "",
    "isEXODestination": "true",
    "tpServer": ""
  },
  {
    "type": "city",
    "unCode": "NNK",
    "tpCode": "NAK",
    "name": "Nakhon Nayok",
    "Country": "THA",
    "provinceISOCode": "NYK",
    "provinceName": "Nakhon Nayok",
    "": "",
    "latitude": 14.2123954,
    "longitude": 101.1183507,
    "zoomLevel": 12,
    "phoneCode": 37,
    "timeZoneCode": "ICT",
    "timeOffset": 7,
    "description": "",
    "isEXODestination": "true",
    "tpServer": ""
  },
  {
    "type": "city",
    "unCode": "NPM",
    "tpCode": "NPT",
    "name": "Nakhon Pathom",
    "Country": "THA",
    "provinceISOCode": "NPT",
    "provinceName": "Nakhon Pathom",
    "": "",
    "latitude": 13.7803825,
    "longitude": 100.053704,
    "zoomLevel": 12,
    "phoneCode": 34,
    "timeZoneCode": "ICT",
    "timeOffset": 7,
    "description": "",
    "isEXODestination": "true",
    "tpServer": ""
  },
  {
    "type": "city",
    "unCode": "KOP",
    "tpCode": "KOP",
    "name": "Nakhon Phanom",
    "Country": "THA",
    "provinceISOCode": "NPM",
    "provinceName": "Nakhon Phanom",
    "": "",
    "latitude": 17.4011909,
    "longitude": 104.7664552,
    "zoomLevel": 12,
    "phoneCode": 42,
    "timeZoneCode": "ICT",
    "timeOffset": 7,
    "description": "",
    "isEXODestination": "true",
    "tpServer": ""
  },
  {
    "type": "city",
    "unCode": "NAK",
    "tpCode": "NKR",
    "name": "Nakhon Ratchasima",
    "Country": "THA",
    "provinceISOCode": "NMA",
    "provinceName": "Nakhon Ratchasima",
    "": "",
    "latitude": 14.972984,
    "longitude": 102.0970792,
    "zoomLevel": 12,
    "phoneCode": 44,
    "timeZoneCode": "ICT",
    "timeOffset": 7,
    "description": "",
    "isEXODestination": "true",
    "tpServer": ""
  },
  {
    "type": "city",
    "unCode": "NSA",
    "tpCode": "NKS",
    "name": "Nakhon Sawan",
    "Country": "THA",
    "provinceISOCode": "NSN",
    "provinceName": "Nakhon Sawan",
    "": "",
    "latitude": 15.6906134,
    "longitude": 100.1118534,
    "zoomLevel": 12,
    "phoneCode": 56,
    "timeZoneCode": "ICT",
    "timeOffset": 7,
    "description": "",
    "isEXODestination": "true",
    "tpServer": ""
  },
  {
    "type": "city",
    "unCode": "NST",
    "tpCode": "NST",
    "name": "Nakhon Si Thammarat",
    "Country": "THA",
    "provinceISOCode": "NRT",
    "provinceName": "Nakhon Si Thammarat",
    "": "",
    "latitude": 8.4071561,
    "longitude": 99.9584835,
    "zoomLevel": 12,
    "phoneCode": 75,
    "timeZoneCode": "ICT",
    "timeOffset": 7,
    "description": "",
    "isEXODestination": "true",
    "tpServer": ""
  },
  {
    "type": "city",
    "unCode": "",
    "tpCode": "NAN",
    "name": "Nan",
    "Country": "THA",
    "provinceISOCode": "NAN",
    "provinceName": "Nan",
    "": "",
    "latitude": 18.7762192,
    "longitude": 100.7716377,
    "zoomLevel": 12,
    "phoneCode": 53,
    "timeZoneCode": "ICT",
    "timeOffset": 7,
    "description": "",
    "isEXODestination": "true",
    "tpServer": ""
  },
  {
    "type": "city",
    "unCode": "NAW",
    "tpCode": "NAW",
    "name": "Narathiwat",
    "Country": "THA",
    "provinceISOCode": "NWT",
    "provinceName": "Narathiwat",
    "": "",
    "latitude": 6.4193337,
    "longitude": 101.7961471,
    "zoomLevel": 12,
    "phoneCode": 73,
    "timeZoneCode": "ICT",
    "timeOffset": 7,
    "description": "",
    "isEXODestination": "true",
    "tpServer": ""
  },
  {
    "type": "city",
    "unCode": "QJX",
    "tpCode": "NKI",
    "name": "Nong Khai",
    "Country": "THA",
    "provinceISOCode": "NKI",
    "provinceName": "Nong Khai",
    "": "",
    "latitude": 17.8566985,
    "longitude": 102.7293654,
    "zoomLevel": 12,
    "phoneCode": 44,
    "timeZoneCode": "ICT",
    "timeOffset": 7,
    "description": "",
    "isEXODestination": "true",
    "tpServer": ""
  },
  {
    "type": "city",
    "unCode": "NTB",
    "tpCode": "NON",
    "name": "Nonthaburi",
    "Country": "THA",
    "provinceISOCode": "NBI",
    "provinceName": "Nonthaburi",
    "": "",
    "latitude": 13.8625051,
    "longitude": 100.5122947,
    "zoomLevel": 12,
    "phoneCode": 2,
    "timeZoneCode": "ICT",
    "timeOffset": 7,
    "description": "",
    "isEXODestination": "true",
    "tpServer": ""
  },
  {
    "type": "city",
    "unCode": "PAI",
    "tpCode": "PAI",
    "name": "Pai",
    "Country": "THA",
    "provinceISOCode": "MSN",
    "provinceName": "Mae Hong Son",
    "": "",
    "latitude": 19.361498,
    "longitude": 98.4349397,
    "zoomLevel": 12,
    "phoneCode": 53,
    "timeZoneCode": "ICT",
    "timeOffset": 7,
    "description": "",
    "isEXODestination": "true",
    "tpServer": ""
  },
  {
    "type": "city",
    "unCode": "",
    "tpCode": "PTM",
    "name": "Pathum Thani",
    "Country": "THA",
    "provinceISOCode": "PTE",
    "provinceName": "Pathum Thani",
    "": "",
    "latitude": 14.0206095,
    "longitude": 100.5210605,
    "zoomLevel": 12,
    "phoneCode": 2,
    "timeZoneCode": "ICT",
    "timeOffset": 7,
    "description": "",
    "isEXODestination": "true",
    "tpServer": ""
  },
  {
    "type": "city",
    "unCode": "PYX",
    "tpCode": "PTY",
    "name": "Pattaya",
    "Country": "THA",
    "provinceISOCode": "CBI",
    "provinceName": "Chonburi",
    "": "",
    "latitude": 12.9265757,
    "longitude": 100.8776661,
    "zoomLevel": 12,
    "phoneCode": 38,
    "timeZoneCode": "ICT",
    "timeOffset": 7,
    "description": "",
    "isEXODestination": "true",
    "tpServer": ""
  },
  {
    "type": "city",
    "unCode": "PHA",
    "tpCode": "PGA",
    "name": "Phang Nga",
    "Country": "THA",
    "provinceISOCode": "PNA",
    "provinceName": "Phang Nga",
    "": "",
    "latitude": 8.4398037,
    "longitude": 98.5162173,
    "zoomLevel": 12,
    "phoneCode": 76,
    "timeZoneCode": "ICT",
    "timeOffset": 7,
    "description": "",
    "isEXODestination": "true",
    "tpServer": ""
  },
  {
    "type": "city",
    "unCode": "PYO",
    "tpCode": "PYO",
    "name": "Phayao",
    "Country": "THA",
    "provinceISOCode": "PYO",
    "provinceName": "Phayao",
    "": "",
    "latitude": 19.1915477,
    "longitude": 99.8777354,
    "zoomLevel": 12,
    "phoneCode": 54,
    "timeZoneCode": "ICT",
    "timeOffset": 7,
    "description": "",
    "isEXODestination": "true",
    "tpServer": ""
  },
  {
    "type": "city",
    "unCode": "PCN",
    "tpCode": "PHE",
    "name": "Phetchabun",
    "Country": "THA",
    "provinceISOCode": "PNB",
    "provinceName": "Phetchabun",
    "": "",
    "latitude": 16.4287818,
    "longitude": 101.1468869,
    "zoomLevel": 12,
    "phoneCode": 56,
    "timeZoneCode": "ICT",
    "timeOffset": 7,
    "description": "",
    "isEXODestination": "true",
    "tpServer": ""
  },
  {
    "type": "city",
    "unCode": "",
    "tpCode": "PCB",
    "name": "Phetchaburi",
    "Country": "THA",
    "provinceISOCode": "PBI",
    "provinceName": "Phetchaburi",
    "": "",
    "latitude": 13.108222,
    "longitude": 99.9401638,
    "zoomLevel": 12,
    "phoneCode": 32,
    "timeZoneCode": "ICT",
    "timeOffset": 7,
    "description": "",
    "isEXODestination": "true",
    "tpServer": ""
  },
  {
    "type": "city",
    "unCode": "PHS",
    "tpCode": "PHS",
    "name": "Phitsanulok",
    "Country": "THA",
    "provinceISOCode": "PLK",
    "provinceName": "Phitsanulok",
    "": "",
    "latitude": 16.8261722,
    "longitude": 100.2578157,
    "zoomLevel": 12,
    "phoneCode": 55,
    "timeZoneCode": "ICT",
    "timeOffset": 7,
    "description": "",
    "isEXODestination": "true",
    "tpServer": ""
  },
  {
    "type": "city",
    "unCode": "PRH",
    "tpCode": "PHR",
    "name": "Phrae",
    "Country": "THA",
    "provinceISOCode": "PRE",
    "provinceName": "Phrae",
    "": "",
    "latitude": 18.1452808,
    "longitude": 100.138337,
    "zoomLevel": 12,
    "phoneCode": 54,
    "timeZoneCode": "ICT",
    "timeOffset": 7,
    "description": "",
    "isEXODestination": "true",
    "tpServer": ""
  },
  {
    "type": "city",
    "unCode": "HKT",
    "tpCode": "HKT",
    "name": "Phuket",
    "Country": "THA",
    "provinceISOCode": "PKT",
    "provinceName": "Phuket",
    "": "",
    "latitude": 7.890068,
    "longitude": 98.3958723,
    "zoomLevel": 12,
    "phoneCode": 76,
    "timeZoneCode": "ICT",
    "timeOffset": 7,
    "description": "",
    "isEXODestination": "true",
    "tpServer": ""
  },
  {
    "type": "city",
    "unCode": "PNB",
    "tpCode": "PCN",
    "name": "Prachinburi",
    "Country": "THA",
    "provinceISOCode": "PRI",
    "provinceName": "Prachinburi",
    "": "",
    "latitude": 14.1095233,
    "longitude": 101.3269593,
    "zoomLevel": 12,
    "phoneCode": 37,
    "timeZoneCode": "ICT",
    "timeOffset": 7,
    "description": "",
    "isEXODestination": "true",
    "tpServer": ""
  },
  {
    "type": "city",
    "unCode": "PKK",
    "tpCode": "PRC",
    "name": "Prachuap Khiri Khan",
    "Country": "THA",
    "provinceISOCode": "PKN",
    "provinceName": "Prachuap Khiri Khan",
    "": "",
    "latitude": 11.8121209,
    "longitude": 99.795984,
    "zoomLevel": 12,
    "phoneCode": 32,
    "timeZoneCode": "ICT",
    "timeOffset": 7,
    "description": "",
    "isEXODestination": "true",
    "tpServer": ""
  },
  {
    "type": "city",
    "unCode": "PBR",
    "tpCode": "PBI",
    "name": "Pranburi",
    "Country": "THA",
    "provinceISOCode": "PKN",
    "provinceName": "Prachuap Khiri Khan",
    "": "",
    "latitude": 12.3404577,
    "longitude": 99.8670392,
    "zoomLevel": 12,
    "phoneCode": 32,
    "timeZoneCode": "ICT",
    "timeOffset": 7,
    "description": "",
    "isEXODestination": "true",
    "tpServer": ""
  },
  {
    "type": "city",
    "unCode": "RNN",
    "tpCode": "RAN",
    "name": "Ranong",
    "Country": "THA",
    "provinceISOCode": "RNG",
    "provinceName": "Ranong",
    "": "",
    "latitude": 9.9666965,
    "longitude": 98.6330083,
    "zoomLevel": 12,
    "phoneCode": 77,
    "timeZoneCode": "ICT",
    "timeOffset": 7,
    "description": "",
    "isEXODestination": "true",
    "tpServer": ""
  },
  {
    "type": "city",
    "unCode": "RAT",
    "tpCode": "RCB",
    "name": "Ratchaburi",
    "Country": "THA",
    "provinceISOCode": "RBR",
    "provinceName": "Ratchaburi",
    "": "",
    "latitude": 13.5280239,
    "longitude": 99.8107534,
    "zoomLevel": 12,
    "phoneCode": 32,
    "timeZoneCode": "ICT",
    "timeOffset": 7,
    "description": "",
    "isEXODestination": "true",
    "tpServer": ""
  },
  {
    "type": "city",
    "unCode": "RYG",
    "tpCode": "RAY",
    "name": "Rayong",
    "Country": "THA",
    "provinceISOCode": "RYG",
    "provinceName": "Rayong",
    "": "",
    "latitude": 12.6814798,
    "longitude": 101.2709756,
    "zoomLevel": 12,
    "phoneCode": 38,
    "timeZoneCode": "ICT",
    "timeOffset": 7,
    "description": "",
    "isEXODestination": "true",
    "tpServer": ""
  },
  {
    "type": "city",
    "unCode": "ROI",
    "tpCode": "ROI",
    "name": "Roi Et",
    "Country": "THA",
    "provinceISOCode": "RET",
    "provinceName": "Roi Et",
    "": "",
    "latitude": 16.0535365,
    "longitude": 103.6548192,
    "zoomLevel": 12,
    "phoneCode": 43,
    "timeZoneCode": "ICT",
    "timeOffset": 7,
    "description": "",
    "isEXODestination": "true",
    "tpServer": ""
  },
  {
    "type": "city",
    "unCode": "",
    "tpCode": "SAK",
    "name": "Sa Kaeo",
    "Country": "THA",
    "provinceISOCode": "SKW",
    "provinceName": "Sa Kaeo",
    "": "",
    "latitude": 13.7969319,
    "longitude": 102.1378929,
    "zoomLevel": 12,
    "phoneCode": 37,
    "timeZoneCode": "ICT",
    "timeOffset": 7,
    "description": "",
    "isEXODestination": "true",
    "tpServer": ""
  },
  {
    "type": "city",
    "unCode": "SNO",
    "tpCode": "SNO",
    "name": "Sakon Nakhon",
    "Country": "THA",
    "provinceISOCode": "SNK",
    "provinceName": "Sakon Nakhon",
    "": "",
    "latitude": 17.154507,
    "longitude": 104.1324524,
    "zoomLevel": 12,
    "phoneCode": 42,
    "timeZoneCode": "ICT",
    "timeOffset": 7,
    "description": "",
    "isEXODestination": "true",
    "tpServer": ""
  },
  {
    "type": "city",
    "unCode": "SAP",
    "tpCode": "SMP",
    "name": "Samut Prakan",
    "Country": "THA",
    "provinceISOCode": "SPK",
    "provinceName": "Samut Prakan",
    "": "",
    "latitude": 13.5693545,
    "longitude": 100.5924309,
    "zoomLevel": 12,
    "phoneCode": 2,
    "timeZoneCode": "ICT",
    "timeOffset": 7,
    "description": "",
    "isEXODestination": "true",
    "tpServer": ""
  },
  {
    "type": "city",
    "unCode": "SSN",
    "tpCode": "SSK",
    "name": "Samut Sakorn",
    "Country": "THA",
    "provinceISOCode": "SKN",
    "provinceName": "Samut Sakhon",
    "": "",
    "latitude": 13.5475752,
    "longitude": 100.2712995,
    "zoomLevel": 12,
    "phoneCode": 34,
    "timeZoneCode": "ICT",
    "timeOffset": 7,
    "description": "",
    "isEXODestination": "true",
    "tpServer": ""
  },
  {
    "type": "city",
    "unCode": "SSM",
    "tpCode": "SAS",
    "name": "Samut Songkhram",
    "Country": "THA",
    "provinceISOCode": "SKM",
    "provinceName": "Samut Songkhram",
    "": "",
    "latitude": 13.4130291,
    "longitude": 99.9995971,
    "zoomLevel": 12,
    "phoneCode": 34,
    "timeZoneCode": "ICT",
    "timeOffset": 7,
    "description": "",
    "isEXODestination": "true",
    "tpServer": ""
  },
  {
    "type": "city",
    "unCode": "SBI",
    "tpCode": "SAR",
    "name": "Saraburi",
    "Country": "THA",
    "provinceISOCode": "SRI",
    "provinceName": "Saraburi",
    "": "",
    "latitude": 14.5253081,
    "longitude": 100.9049067,
    "zoomLevel": 12,
    "phoneCode": 36,
    "timeZoneCode": "ICT",
    "timeOffset": 7,
    "description": "",
    "isEXODestination": "true",
    "tpServer": ""
  },
  {
    "type": "city",
    "unCode": "SNT",
    "tpCode": "SAT",
    "name": "Satun",
    "Country": "THA",
    "provinceISOCode": "STN",
    "provinceName": "Satun",
    "": "",
    "latitude": 6.623775,
    "longitude": 100.0652172,
    "zoomLevel": 12,
    "phoneCode": 74,
    "timeZoneCode": "ICT",
    "timeOffset": 7,
    "description": "",
    "isEXODestination": "true",
    "tpServer": ""
  },
  {
    "type": "city",
    "unCode": "SSK",
    "tpCode": "SIS",
    "name": "Sisaket",
    "Country": "THA",
    "provinceISOCode": "SSK",
    "provinceName": "Sisaket",
    "": "",
    "latitude": 15.1202791,
    "longitude": 104.3192905,
    "zoomLevel": 12,
    "phoneCode": 45,
    "timeZoneCode": "ICT",
    "timeOffset": 7,
    "description": "",
    "isEXODestination": "true",
    "tpServer": ""
  },
  {
    "type": "city",
    "unCode": "SGZ",
    "tpCode": "SKL",
    "name": "Songkhla",
    "Country": "THA",
    "provinceISOCode": "SKA",
    "provinceName": "Songkhla",
    "": "",
    "latitude": 7.2052572,
    "longitude": 100.5946715,
    "zoomLevel": 12,
    "phoneCode": 74,
    "timeZoneCode": "ICT",
    "timeOffset": 7,
    "description": "",
    "isEXODestination": "true",
    "tpServer": ""
  },
  {
    "type": "city",
    "unCode": "THS",
    "tpCode": "THS",
    "name": "Sukhothai",
    "Country": "THA",
    "provinceISOCode": "STI",
    "provinceName": "Sukhothai",
    "": "",
    "latitude": 16.9882007,
    "longitude": 99.8077988,
    "zoomLevel": 12,
    "phoneCode": 55,
    "timeZoneCode": "ICT",
    "timeOffset": 7,
    "description": "",
    "isEXODestination": "true",
    "tpServer": ""
  },
  {
    "type": "city",
    "unCode": "SUB",
    "tpCode": "SPB",
    "name": "Suphanburi",
    "Country": "THA",
    "provinceISOCode": "SPB",
    "provinceName": "Suphanburi",
    "": "",
    "latitude": 14.493911,
    "longitude": 100.114103,
    "zoomLevel": 12,
    "phoneCode": 35,
    "timeZoneCode": "ICT",
    "timeOffset": 7,
    "description": "",
    "isEXODestination": "true",
    "tpServer": ""
  },
  {
    "type": "city",
    "unCode": "URT",
    "tpCode": "URT",
    "name": "Surat Thani",
    "Country": "THA",
    "provinceISOCode": "SNI",
    "provinceName": "Surat Thani",
    "": "",
    "latitude": 9.118229,
    "longitude": 99.3239786,
    "zoomLevel": 12,
    "phoneCode": 77,
    "timeZoneCode": "ICT",
    "timeOffset": 7,
    "description": "",
    "isEXODestination": "true",
    "tpServer": ""
  },
  {
    "type": "city",
    "unCode": "SNR",
    "tpCode": "SRI",
    "name": "Surin",
    "Country": "THA",
    "provinceISOCode": "SRN",
    "provinceName": "Surin",
    "": "",
    "latitude": 14.8823509,
    "longitude": 103.4900721,
    "zoomLevel": 12,
    "phoneCode": 45,
    "timeZoneCode": "ICT",
    "timeOffset": 7,
    "description": "",
    "isEXODestination": "true",
    "tpServer": ""
  },
  {
    "type": "city",
    "unCode": "TKT",
    "tpCode": "TAK",
    "name": "Tak",
    "Country": "THA",
    "provinceISOCode": "TAK",
    "provinceName": "Tak",
    "": "",
    "latitude": 16.8675976,
    "longitude": 99.1272078,
    "zoomLevel": 12,
    "phoneCode": 55,
    "timeZoneCode": "ICT",
    "timeOffset": 7,
    "description": "",
    "isEXODestination": "true",
    "tpServer": ""
  },
  {
    "type": "city",
    "unCode": "TRG",
    "tpCode": "TRG",
    "name": "Trang",
    "Country": "THA",
    "provinceISOCode": "TRG",
    "provinceName": "Trang",
    "": "",
    "latitude": 7.5582808,
    "longitude": 99.6084722,
    "zoomLevel": 12,
    "phoneCode": 75,
    "timeZoneCode": "ICT",
    "timeOffset": 7,
    "description": "",
    "isEXODestination": "true",
    "tpServer": ""
  },
  {
    "type": "city",
    "unCode": "TDX",
    "tpCode": "TDX",
    "name": "Trat",
    "Country": "THA",
    "provinceISOCode": "TRT",
    "provinceName": "Trat",
    "": "",
    "latitude": 12.2473927,
    "longitude": 102.5052022,
    "zoomLevel": 12,
    "phoneCode": 39,
    "timeZoneCode": "ICT",
    "timeOffset": 7,
    "description": "",
    "isEXODestination": "true",
    "tpServer": ""
  },
  {
    "type": "city",
    "unCode": "UBP",
    "tpCode": "UBP",
    "name": "Ubon Ratchathani",
    "Country": "THA",
    "provinceISOCode": "UBN",
    "provinceName": "Ubon Ratchathani",
    "": "",
    "latitude": 15.2295517,
    "longitude": 104.8528606,
    "zoomLevel": 12,
    "phoneCode": 45,
    "timeZoneCode": "ICT",
    "timeOffset": 7,
    "description": "",
    "isEXODestination": "true",
    "tpServer": ""
  },
  {
    "type": "city",
    "unCode": "UTH",
    "tpCode": "UTH",
    "name": "Udon Thani",
    "Country": "THA",
    "provinceISOCode": "UDN",
    "provinceName": "Udon Thani",
    "": "",
    "latitude": 17.4113136,
    "longitude": 102.7779358,
    "zoomLevel": 12,
    "phoneCode": 42,
    "timeZoneCode": "ICT",
    "timeOffset": 7,
    "description": "",
    "isEXODestination": "true",
    "tpServer": ""
  },
  {
    "type": "city",
    "unCode": "",
    "tpCode": "UTT",
    "name": "Uthai Thani",
    "Country": "THA",
    "provinceISOCode": "UTI",
    "provinceName": "Uthai Thani",
    "": "",
    "latitude": 15.3770415,
    "longitude": 100.0142016,
    "zoomLevel": 12,
    "phoneCode": 56,
    "timeZoneCode": "ICT",
    "timeOffset": 7,
    "description": "",
    "isEXODestination": "true",
    "tpServer": ""
  },
  {
    "type": "city",
    "unCode": "UTR",
    "tpCode": "UTD",
    "name": "Uttaradit",
    "Country": "THA",
    "provinceISOCode": "UTD",
    "provinceName": "Uttaradit",
    "": "",
    "latitude": 17.6297821,
    "longitude": 100.0944324,
    "zoomLevel": 12,
    "phoneCode": 55,
    "timeZoneCode": "ICT",
    "timeOffset": 7,
    "description": "",
    "isEXODestination": "true",
    "tpServer": ""
  }
]
